[
  {
    "city_id": "3448439",
    "city_name": "São Paulo",
    "state_code": "35",
    "country_code": "BR",
    "country_full": "Brazil",
    "lat": "-23.55052",
    "lon": "-46.63331"
  },
  {
    "city_id": "3451190",
    "city_name": "Rio de Janeiro",
    "state_code": "33",
    "country_code": "BR",
    "country_full": "Brazil",
    "lat": "-22.90685",
    "lon": "-43.1729"
  },
  {
    "city_id": "3470127",
    "city_name": "Belo Horizonte",
    "state_code": "31",
    "country_code": "BR",
    "country_full": "Brazil",
    "lat": "-19.9245",
    "lon": "-43.9352"
  },
  {
    "city_id": "3469058",
    "city_name": "Brasília",
    "state_code": "53",
    "country_code": "BR",
    "country_full": "Brazil",
    "lat": "-15.77972",
    "lon": "-47.92972"
  },
  {
    "city_id": "3469059",
    "city_name": "Salvador",
    "state_code": "29",
    "country_code": "BR",
    "country_full": "Brazil",
    "lat": "-12.97139",
    "lon": "-38.50139"
  },
  {
    "city_id": "3469060",
    "city_name": "Fortaleza",
    "state_code": "23",
    "country_code": "BR",
    "country_full": "Brazil",
    "lat": "-3.71722",
    "lon": "-38.54306"
  },
  {
    "city_id": "3469061",
    "city_name": "Curitiba",
    "state_code": "41",
    "country_code": "BR",
    "country_full": "Brazil",
    "lat": "-25.42961",
    "lon": "-49.27193"
  },
  {
    "city_id": "3469062",
    "city_name": "Manaus",
    "state_code": "13",
    "country_code": "BR",
    "country_full": "Brazil",
    "lat": "-3.10194",
    "lon": "-60.025"
  },
  {
    "city_id": "3469063",
    "city_name": "Recife",
    "state_code": "26",
    "country_code": "BR",
    "country_full": "Brazil",
    "lat": "-8.05389",
    "lon": "-34.88111"
  },
  {
    "city_id": "3469064",
    "city_name": "Porto Alegre",
    "state_code": "43",
    "country_code": "BR",
    "country_full": "Brazil",
    "lat": "-30.0277",
    "lon": "-51.2287"
  },
  {
    "city_id": "3469065",
    "city_name": "Belém",
    "state_code": "15",
    "country_code": "BR",
    "country_full": "Brazil",
    "lat": "-1.45583",
    "lon": "-48.50389"
  },
  {
    "city_id": "3469066",
    "city_name": "Goiânia",
    "state_code": "52",
    "country_code": "BR",
    "country_full": "Brazil",
    "lat": "-16.68639",
    "lon": "-49.26417"
  },
  {
    "city_id": "3469067",
    "city_name": "Guarulhos",
    "state_code": "35",
    "country_code": "BR",
    "country_full": "Brazil",
    "lat": "-23.4628",
    "lon": "-46.5333"
  },
  {
    "city_id": "3469068",
    "city_name": "Campinas",
    "state_code": "35",
    "country_code": "BR",
    "country_full": "Brazil",
    "lat": "-22.90556",
    "lon": "-47.06083"
  },
  {
    "city_id": "3469069",
    "city_name": "São Luís",
    "state_code": "21",
    "country_code": "BR",
    "country_full": "Brazil",
    "lat": "-2.52972",
    "lon": "-44.30278"
  },
  {
    "city_id": "3469070",
    "city_name": "São Gonçalo",
    "state_code": "33",
    "country_code": "BR",
    "country_full": "Brazil",
    "lat": "-22.8268",
    "lon": "-43.0634"
  },
  {
    "city_id": "3469071",
    "city_name": "Maceió",
    "state_code": "27",
    "country_code": "BR",
    "country_full": "Brazil",
    "lat": "-9.66583",
    "lon": "-35.73528"
  },
  {
    "city_id": "3469072",
    "city_name": "Duque de Caxias",
    "state_code": "33",
    "country_code": "BR",
    "country_full": "Brazil",
    "lat": "-22.78556",
    "lon": "-43.31167"
  },
  {
    "city_id": "3469073",
    "city_name": "Natal",
    "state_code": "24",
    "country_code": "BR",
    "country_full": "Brazil",
    "lat": "-5.79448",
    "lon": "-35.211"
  },
  {
    "city_id": "3469074",
    "city_name": "Teresina",
    "state_code": "22",
    "country_code": "BR",
    "country_full": "Brazil",
    "lat": "-5.08917",
    "lon": "-42.80194"
  },
  {
    "city_id": "3469075",
    "city_name": "Uberlândia",
    "state_code": "31",
    "country_code": "BR",
    "country_full": "Brazil",
    "lat": "-18.914",
    "lon": "-48.2748"
  }
] 